[{"id": "1f2b237f80", "name": "중구 공영주차장", "address": "서울특별시 중구 세종대로 110", "region": "서울", "type": "노외", "lat": "37.5665", "lon": "126.9780", "org": "서울특별시", "phone": "02-000-0000"}, {"id": "557cc5e3ed", "name": "부산역 공영주차장", "address": "부산광역시 동구 중앙대로 206", "region": "부산", "type": "노외", "lat": "35.1151", "lon": "129.0414", "org": "부산광역시", "phone": "051-000-0000"}, {"id": "69a20671cd", "name": "대전 시청 공영주차장", "address": "대전광역시 서구 둔산로 100", "region": "대전", "type": "부설", "lat": "36.3504", "lon": "127.3845", "org": "대전광역시", "phone": "042-000-0000"}, {"id": "bd8a383c16", "name": "인천 공항철도 공영주차장", "address": "인천광역시 중구 공항로 271", "region": "인천", "type": "노외", "lat": "37.4602", "lon": "126.4407", "org": "인천광역시", "phone": "032-000-0000"}, {"id": "f8ed15804e", "name": "광주 터미널 공영주차장", "address": "광주광역시 서구 무진대로 904", "region": "광주", "type": "노외", "lat": "35.1601", "lon": "126.8819", "org": "광주광역시", "phone": "062-000-0000"}, {"id": "8f4d202eec", "name": "대구 동성로 공영주차장", "address": "대구광역시 중구 동성로 2", "region": "대구", "type": "노외", "lat": "35.8686", "lon": "128.5940", "org": "대구광역시", "phone": "053-000-0000"}, {"id": "d9d70f67ac", "name": "울산 태화강 공영주차장", "address": "울산광역시 중구 태화로 100", "region": "울산", "type": "노외", "lat": "35.5466", "lon": "129.3157", "org": "울산광역시", "phone": "052-000-0000"}, {"id": "b9206eba4d", "name": "수원 화성 공영주차장", "address": "경기도 수원시 팔달구 정조로 825", "region": "경기", "type": "노외", "lat": "37.2850", "lon": "127.0196", "org": "수원시", "phone": "031-000-0000"}, {"id": "ee745ba8cd", "name": "춘천 명동 공영주차장", "address": "강원특별자치도 춘천시 중앙로 1", "region": "강원", "type": "노외", "lat": "37.8813", "lon": "127.7298", "org": "춘천시", "phone": "033-000-0000"}, {"id": "74c4f2ba24", "name": "제주 시청 공영주차장", "address": "제주특별자치도 제주시 광양9길 10", "region": "제주", "type": "부설", "lat": "33.4996", "lon": "126.5312", "org": "제주특별자치도", "phone": "064-000-0000"}]